[{"id":1,"name":null,"latitude":57.7081,"longitude":11.9761,"description":null,"website":null,"image":null,"pointOfInterestType_id":1,"user_id":1,"created_at":null,"updated_at":null,"type":{"id":1,"name":"Parkering","icon":"\/gfx\/icons\/parkinggarage.png"}},{"id":2,"name":null,"latitude":57.6996,"longitude":11.967600000000001,"description":null,"website":null,"image":null,"pointOfInterestType_id":1,"user_id":1,"created_at":null,"updated_at":null,"type":{"id":1,"name":"Parkering","icon":"\/gfx\/icons\/parkinggarage.png"}},{"id":3,"name":null,"latitude":57.6975,"longitude":11.9916,"description":null,"website":null,"image":null,"pointOfInterestType_id":1,"user_id":1,"created_at":null,"updated_at":null,"type":{"id":1,"name":"Parkering","icon":"\/gfx\/icons\/parkinggarage.png"}},{"id":4,"name":null,"latitude":57.692,"longitude":11.9938,"description":null,"website":null,"image":null,"pointOfInterestType_id":1,"user_id":1,"created_at":null,"updated_at":null,"type":{"id":1,"name":"Parkering","icon":"\/gfx\/icons\/parkinggarage.png"}},{"id":5,"name":null,"latitude":57.6985,"longitude":11.9867,"description":null,"website":null,"image":null,"pointOfInterestType_id":1,"user_id":1,"created_at":null,"updated_at":null,"type":{"id":1,"name":"Parkering","icon":"\/gfx\/icons\/parkinggarage.png"}},{"id":6,"name":null,"latitude":57.708,"longitude":11.9779,"description":null,"website":null,"image":null,"pointOfInterestType_id":1,"user_id":1,"created_at":"2016-09-19 08:44:31","updated_at":"2016-09-19 08:44:31","type":{"id":1,"name":"Parkering","icon":"\/gfx\/icons\/parkinggarage.png"}},{"id":7,"name":null,"latitude":57.7099,"longitude":11.9845,"description":null,"website":null,"image":null,"pointOfInterestType_id":1,"user_id":1,"created_at":"2016-09-19 08:46:24","updated_at":"2016-09-19 08:46:24","type":{"id":1,"name":"Parkering","icon":"\/gfx\/icons\/parkinggarage.png"}},{"id":8,"name":null,"latitude":57.8606,"longitude":12.9253,"description":null,"website":null,"image":null,"pointOfInterestType_id":2,"user_id":1,"created_at":"2016-09-19 09:07:55","updated_at":"2016-09-19 09:07:55","type":{"id":2,"name":"Caf\u00e9","icon":"\/gfx\/icons\/coffee.png"}},{"id":10,"name":null,"latitude":58.4755,"longitude":12.8206,"description":null,"website":null,"image":null,"pointOfInterestType_id":2,"user_id":1,"created_at":"2016-09-19 09:19:21","updated_at":"2016-09-19 09:19:21","type":{"id":2,"name":"Caf\u00e9","icon":"\/gfx\/icons\/coffee.png"}},{"id":11,"name":null,"latitude":58.6424,"longitude":13.213,"description":null,"website":null,"image":null,"pointOfInterestType_id":2,"user_id":1,"created_at":"2016-09-19 09:20:02","updated_at":"2016-09-19 09:20:02","type":{"id":2,"name":"Caf\u00e9","icon":"\/gfx\/icons\/coffee.png"}},{"id":12,"name":null,"latitude":58.1188,"longitude":12.5336,"description":null,"website":null,"image":null,"pointOfInterestType_id":2,"user_id":1,"created_at":"2016-09-19 09:23:37","updated_at":"2016-09-19 09:23:37","type":{"id":2,"name":"Caf\u00e9","icon":"\/gfx\/icons\/coffee.png"}},{"id":13,"name":null,"latitude":57.7024,"longitude":11.9653,"description":null,"website":null,"image":null,"pointOfInterestType_id":1,"user_id":1,"created_at":"2016-09-19 09:27:03","updated_at":"2016-09-19 09:27:03","type":{"id":1,"name":"Parkering","icon":"\/gfx\/icons\/parkinggarage.png"}},{"id":14,"name":"Utvecklingsgatan","latitude":57.7049,"longitude":11.9354,"description":null,"website":null,"image":null,"pointOfInterestType_id":1,"user_id":1,"created_at":"2016-09-19 10:18:19","updated_at":"2016-09-19 10:18:19","type":{"id":1,"name":"Parkering","icon":"\/gfx\/icons\/parkinggarage.png"}},{"id":15,"name":"Kyrkogatan","latitude":57.7046,"longitude":11.9644,"description":null,"website":null,"image":null,"pointOfInterestType_id":1,"user_id":1,"created_at":"2016-09-19 10:23:59","updated_at":"2016-09-19 10:23:59","type":{"id":1,"name":"Parkering","icon":"\/gfx\/icons\/parkinggarage.png"}},{"id":16,"name":"Kyrkogatan","latitude":57.7049,"longitude":11.9659,"description":null,"website":null,"image":null,"pointOfInterestType_id":1,"user_id":1,"created_at":"2016-09-19 10:24:58","updated_at":"2016-09-19 10:24:58","type":{"id":1,"name":"Parkering","icon":"\/gfx\/icons\/parkinggarage.png"}},{"id":17,"name":"Sk\u00e5negatan","latitude":57.7052,"longitude":11.9851,"description":null,"website":null,"image":null,"pointOfInterestType_id":1,"user_id":1,"created_at":"2016-09-19 10:29:46","updated_at":"2016-09-19 10:29:46","type":{"id":1,"name":"Parkering","icon":"\/gfx\/icons\/parkinggarage.png"}},{"id":18,"name":"Engelbrektsgatan","latitude":57.7017,"longitude":11.9838,"description":null,"website":null,"image":null,"pointOfInterestType_id":1,"user_id":1,"created_at":"2016-09-19 10:32:27","updated_at":"2016-09-19 10:32:27","type":{"id":1,"name":"Parkering","icon":"\/gfx\/icons\/parkinggarage.png"}},{"id":19,"name":"Biltema","latitude":57.7262,"longitude":11.9625,"description":null,"website":null,"image":null,"pointOfInterestType_id":1,"user_id":1,"created_at":"2016-09-19 10:36:09","updated_at":"2016-09-19 10:36:09","type":{"id":1,"name":"Parkering","icon":"\/gfx\/icons\/parkinggarage.png"}},{"id":20,"name":"Carls Caf\u00e9","latitude":57.7416,"longitude":11.7362,"description":"V\u00e4lkommen till oss p\u00e5 Carls Caf\u00e9. H\u00e4r har du m\u00f6jlighet att sitta ner med en god kopp kaffe eller mat och njuta av en underbar utsikt. Varf\u00f6r inte en tapastallrik och ett glas vin p\u00e5 takterassen?&amp;amp;lt;br&amp;amp;gt;&amp;amp;lt;br&amp;amp;gt;F\u00f6r bokningar eller fr\u00e5gor ring: 031-560 885&amp;amp;lt;br&amp;amp;gt;&amp;amp;lt;br&amp;amp;gt;F\u00f6r specialevenemang se v\u00e5r Facebooksida. D\u00e4r uppdaterar vi alla AW och Trubadurkv\u00e4llar.","website":"http:\/\/www.sillvik.nu\/carls-caf%C3%A9-bistro-2809855","image":"http:\/\/1.bp.blogspot.com\/-TWjRpV43EdY\/UfY-p8vCFLI\/AAAAAAABTNQ\/6AWb79e4kRA\/s1600\/5525CarlsCafeSillvik.jpg","pointOfInterestType_id":2,"user_id":1,"created_at":"2016-09-19 11:56:51","updated_at":"2016-09-19 11:56:51","type":{"id":2,"name":"Caf\u00e9","icon":"\/gfx\/icons\/coffee.png"}},{"id":21,"name":"Brobacka Kaffestuga","latitude":57.9793,"longitude":12.4341,"description":null,"website":null,"image":"http:\/\/www.brobackakaffestuga.se\/media\/5815\/dsc_0011_616x411.jpg","pointOfInterestType_id":2,"user_id":1,"created_at":"2016-09-19 12:35:45","updated_at":"2016-09-19 12:35:45","type":{"id":2,"name":"Caf\u00e9","icon":"\/gfx\/icons\/coffee.png"}},{"id":22,"name":"Slussplatsen","latitude":57.707300000000004,"longitude":11.9733,"description":null,"website":null,"image":null,"pointOfInterestType_id":1,"user_id":1,"created_at":"2016-09-19 14:07:14","updated_at":"2016-09-19 14:07:14","type":{"id":1,"name":"Parkering","icon":"\/gfx\/icons\/parkinggarage.png"}},{"id":23,"name":"K\u00f6pmansgatan","latitude":57.7072,"longitude":11.9657,"description":null,"website":null,"image":null,"pointOfInterestType_id":1,"user_id":1,"created_at":"2016-09-19 14:13:46","updated_at":"2016-09-19 14:13:46","type":{"id":1,"name":"Parkering","icon":"\/gfx\/icons\/parkinggarage.png"}},{"id":24,"name":"Kungsgatan 18","latitude":57.7034,"longitude":11.9605,"description":null,"website":null,"image":null,"pointOfInterestType_id":1,"user_id":1,"created_at":"2016-09-19 14:15:14","updated_at":"2016-09-19 14:15:14","type":{"id":1,"name":"Parkering","icon":"\/gfx\/icons\/parkinggarage.png"}},{"id":25,"name":"Masthuggstorget","latitude":57.6987,"longitude":11.9433,"description":null,"website":null,"image":null,"pointOfInterestType_id":1,"user_id":1,"created_at":"2016-09-19 14:20:23","updated_at":"2016-09-19 14:20:23","type":{"id":1,"name":"Parkering","icon":"\/gfx\/icons\/parkinggarage.png"}},{"id":26,"name":"Arsenalsgatan","latitude":57.7017,"longitude":11.957699999999999,"description":null,"website":null,"image":null,"pointOfInterestType_id":1,"user_id":1,"created_at":"2016-09-19 14:24:44","updated_at":"2016-09-19 14:24:44","type":{"id":1,"name":"Parkering","icon":"\/gfx\/icons\/parkinggarage.png"}},{"id":27,"name":"Friggagatan","latitude":57.7121,"longitude":11.9901,"description":null,"website":null,"image":null,"pointOfInterestType_id":1,"user_id":1,"created_at":"2016-09-19 14:32:15","updated_at":"2016-09-19 14:32:15","type":{"id":1,"name":"Parkering","icon":"\/gfx\/icons\/parkinggarage.png"}},{"id":28,"name":"Friggagaraget","latitude":57.7114,"longitude":11.9872,"description":"Finns gratisparkering inne i underjordsgaraget","website":null,"image":null,"pointOfInterestType_id":1,"user_id":1,"created_at":"2016-09-19 14:34:18","updated_at":"2016-09-19 14:34:18","type":{"id":1,"name":"Parkering","icon":"\/gfx\/icons\/parkinggarage.png"}},{"id":29,"name":"Bj\u00f6rng\u00e5rdsv\u00e4gen","latitude":57.6899,"longitude":11.9473,"description":null,"website":null,"image":null,"pointOfInterestType_id":1,"user_id":1,"created_at":"2016-09-19 14:37:31","updated_at":"2016-09-19 14:37:31","type":{"id":1,"name":"Parkering","icon":"\/gfx\/icons\/parkinggarage.png"}},{"id":30,"name":"Alfhemsgatan","latitude":57.6916,"longitude":11.950099999999999,"description":null,"website":null,"image":null,"pointOfInterestType_id":1,"user_id":1,"created_at":"2016-09-19 14:39:08","updated_at":"2016-09-19 14:39:08","type":{"id":1,"name":"Parkering","icon":"\/gfx\/icons\/parkinggarage.png"}},{"id":31,"name":"S\u00f6dra hamngatan","latitude":57.7062,"longitude":11.9664,"description":null,"website":null,"image":null,"pointOfInterestType_id":1,"user_id":1,"created_at":"2016-09-19 14:44:05","updated_at":"2016-09-19 14:44:05","type":{"id":1,"name":"Parkering","icon":"\/gfx\/icons\/parkinggarage.png"}},{"id":32,"name":"Hvitfeldtsplatsen","latitude":57.7009,"longitude":11.9602,"description":null,"website":null,"image":null,"pointOfInterestType_id":1,"user_id":1,"created_at":"2016-09-19 19:17:08","updated_at":"2016-09-19 19:17:08","type":{"id":1,"name":"Parkering","icon":"\/gfx\/icons\/parkinggarage.png"}},{"id":33,"name":"V\u00e4stg\u00f6tagatan","latitude":57.7046,"longitude":11.9808,"description":null,"website":null,"image":null,"pointOfInterestType_id":1,"user_id":1,"created_at":"2016-09-19 19:19:43","updated_at":"2016-09-19 19:19:43","type":{"id":1,"name":"Parkering","icon":"\/gfx\/icons\/parkinggarage.png"}},{"id":34,"name":"\u00d6vre Djupedalsgatan","latitude":57.6949,"longitude":11.9495,"description":null,"website":null,"image":null,"pointOfInterestType_id":1,"user_id":1,"created_at":"2016-09-19 19:23:47","updated_at":"2016-09-19 19:23:47","type":{"id":1,"name":"Parkering","icon":"\/gfx\/icons\/parkinggarage.png"}},{"id":35,"name":"Slottskogspromenaden","latitude":57.6822,"longitude":11.9448,"description":null,"website":null,"image":null,"pointOfInterestType_id":1,"user_id":1,"created_at":"2016-09-19 19:27:24","updated_at":"2016-09-19 19:27:24","type":{"id":1,"name":"Parkering","icon":"\/gfx\/icons\/parkinggarage.png"}},{"id":36,"name":"\u00d6stra sjukhuset","latitude":57.722,"longitude":12.0491,"description":null,"website":null,"image":null,"pointOfInterestType_id":1,"user_id":1,"created_at":"2016-09-19 19:28:54","updated_at":"2016-09-19 19:28:54","type":{"id":1,"name":"Parkering","icon":"\/gfx\/icons\/parkinggarage.png"}},{"id":37,"name":"\u00d6stra hamngatan 45","latitude":57.7043,"longitude":11.9691,"description":null,"website":null,"image":null,"pointOfInterestType_id":1,"user_id":1,"created_at":"2016-09-19 19:30:03","updated_at":"2016-09-19 19:30:03","type":{"id":1,"name":"Parkering","icon":"\/gfx\/icons\/parkinggarage.png"}},{"id":38,"name":"\u00d6stra hamngatan 20","latitude":57.7089,"longitude":11.9671,"description":null,"website":null,"image":null,"pointOfInterestType_id":1,"user_id":1,"created_at":"2016-09-19 19:31:26","updated_at":"2016-09-19 19:31:26","type":{"id":1,"name":"Parkering","icon":"\/gfx\/icons\/parkinggarage.png"}},{"id":39,"name":"\u00c5v\u00e4gen","latitude":57.6978,"longitude":11.9933,"description":null,"website":null,"image":null,"pointOfInterestType_id":1,"user_id":1,"created_at":"2016-09-19 19:35:26","updated_at":"2016-09-19 19:35:26","type":{"id":1,"name":"Parkering","icon":"\/gfx\/icons\/parkinggarage.png"}},{"id":40,"name":"Vegagatan 2","latitude":57.697,"longitude":11.9481,"description":null,"website":null,"image":null,"pointOfInterestType_id":1,"user_id":1,"created_at":"2016-09-19 19:38:36","updated_at":"2016-09-19 19:38:36","type":{"id":1,"name":"Parkering","icon":"\/gfx\/icons\/parkinggarage.png"}},{"id":41,"name":"Vasagatan","latitude":57.6975,"longitude":11.9621,"description":null,"website":null,"image":null,"pointOfInterestType_id":1,"user_id":1,"created_at":"2016-09-19 19:41:10","updated_at":"2016-09-19 19:41:10","type":{"id":1,"name":"Parkering","icon":"\/gfx\/icons\/parkinggarage.png"}},{"id":42,"name":"Teatergatan","latitude":57.7005,"longitude":11.9733,"description":null,"website":null,"image":null,"pointOfInterestType_id":1,"user_id":1,"created_at":"2016-09-19 19:46:24","updated_at":"2016-09-19 19:46:24","type":{"id":1,"name":"Parkering","icon":"\/gfx\/icons\/parkinggarage.png"}},{"id":43,"name":"S\u00f6dra v\u00e4gen 63","latitude":57.6954,"longitude":11.988199999999999,"description":null,"website":null,"image":null,"pointOfInterestType_id":1,"user_id":1,"created_at":"2016-09-19 19:48:11","updated_at":"2016-09-19 19:48:11","type":{"id":1,"name":"Parkering","icon":"\/gfx\/icons\/parkinggarage.png"}},{"id":44,"name":"S\u00f6dra gubberogatan","latitude":57.7077,"longitude":11.997,"description":null,"website":null,"image":null,"pointOfInterestType_id":1,"user_id":1,"created_at":"2016-09-19 19:51:16","updated_at":"2016-09-19 19:51:16","type":{"id":1,"name":"Parkering","icon":"\/gfx\/icons\/parkinggarage.png"}},{"id":45,"name":"S\u00e5ggatan","latitude":57.692,"longitude":11.928,"description":null,"website":null,"image":null,"pointOfInterestType_id":1,"user_id":1,"created_at":"2016-09-19 20:11:43","updated_at":"2016-09-19 20:11:43","type":{"id":1,"name":"Parkering","icon":"\/gfx\/icons\/parkinggarage.png"}},{"id":46,"name":"Storgatan","latitude":57.7005,"longitude":11.9701,"description":null,"website":null,"image":null,"pointOfInterestType_id":1,"user_id":1,"created_at":"2016-09-19 20:14:29","updated_at":"2016-09-19 20:14:29","type":{"id":1,"name":"Parkering","icon":"\/gfx\/icons\/parkinggarage.png"}},{"id":47,"name":"Stenhammarsgatan","latitude":57.6963,"longitude":11.9783,"description":null,"website":null,"image":null,"pointOfInterestType_id":1,"user_id":1,"created_at":"2016-09-19 20:15:43","updated_at":"2016-09-19 20:15:43","type":{"id":1,"name":"Parkering","icon":"\/gfx\/icons\/parkinggarage.png"}},{"id":48,"name":"Spannm\u00e5lsgatan","latitude":57.709,"longitude":11.9665,"description":null,"website":null,"image":null,"pointOfInterestType_id":1,"user_id":1,"created_at":"2016-09-19 20:17:41","updated_at":"2016-09-19 20:17:41","type":{"id":1,"name":"Parkering","icon":"\/gfx\/icons\/parkinggarage.png"}},{"id":49,"name":"Smithska badet","latitude":57.6131,"longitude":11.8911,"description":null,"website":null,"image":null,"pointOfInterestType_id":1,"user_id":1,"created_at":"2016-09-19 20:22:01","updated_at":"2016-09-19 20:22:01","type":{"id":1,"name":"Parkering","icon":"\/gfx\/icons\/parkinggarage.png"}},{"id":50,"name":"Skat\u00e5s","latitude":57.7041,"longitude":12.0347,"description":null,"website":null,"image":null,"pointOfInterestType_id":1,"user_id":1,"created_at":"2016-09-19 20:26:00","updated_at":"2016-09-19 20:26:00","type":{"id":1,"name":"Parkering","icon":"\/gfx\/icons\/parkinggarage.png"}},{"id":51,"name":"Skanstorget","latitude":57.696,"longitude":11.9584,"description":null,"website":null,"image":null,"pointOfInterestType_id":1,"user_id":1,"created_at":"2016-09-19 20:29:52","updated_at":"2016-09-19 20:29:52","type":{"id":1,"name":"Parkering","icon":"\/gfx\/icons\/parkinggarage.png"}},{"id":52,"name":"Saknt Pauligatan 3","latitude":57.7137,"longitude":12.0045,"description":null,"website":null,"image":null,"pointOfInterestType_id":1,"user_id":1,"created_at":"2016-09-19 20:32:02","updated_at":"2016-09-19 20:32:02","type":{"id":1,"name":"Parkering","icon":"\/gfx\/icons\/parkinggarage.png"}},{"id":53,"name":"Sankt Eriksgatan","latitude":57.708,"longitude":11.9611,"description":null,"website":null,"image":null,"pointOfInterestType_id":1,"user_id":1,"created_at":"2016-09-19 20:34:21","updated_at":"2016-09-19 20:34:21","type":{"id":1,"name":"Parkering","icon":"\/gfx\/icons\/parkinggarage.png"}},{"id":54,"name":"Saltholmen","latitude":57.6609,"longitude":11.8432,"description":null,"website":null,"image":null,"pointOfInterestType_id":1,"user_id":1,"created_at":"2016-09-19 20:38:30","updated_at":"2016-09-19 20:38:30","type":{"id":1,"name":"Parkering","icon":"\/gfx\/icons\/parkinggarage.png"}},{"id":55,"name":"P\u00e5skbergatan","latitude":57.6955,"longitude":11.9971,"description":null,"website":null,"image":null,"pointOfInterestType_id":1,"user_id":1,"created_at":"2016-09-19 20:41:23","updated_at":"2016-09-19 20:41:23","type":{"id":1,"name":"Parkering","icon":"\/gfx\/icons\/parkinggarage.png"}},{"id":56,"name":"Paradisgatan","latitude":57.6929,"longitude":11.9417,"description":null,"website":null,"image":null,"pointOfInterestType_id":1,"user_id":1,"created_at":"2016-09-19 20:46:31","updated_at":"2016-09-19 20:46:31","type":{"id":1,"name":"Parkering","icon":"\/gfx\/icons\/parkinggarage.png"}},{"id":57,"name":"Packhusgatan","latitude":57.708,"longitude":11.9591,"description":null,"website":null,"image":null,"pointOfInterestType_id":1,"user_id":1,"created_at":"2016-09-19 20:49:01","updated_at":"2016-09-19 20:49:01","type":{"id":1,"name":"Parkering","icon":"\/gfx\/icons\/parkinggarage.png"}},{"id":58,"name":"Ostindiegatan","latitude":57.687,"longitude":11.914,"description":null,"website":null,"image":null,"pointOfInterestType_id":1,"user_id":1,"created_at":"2016-09-19 20:51:45","updated_at":"2016-09-19 20:51:45","type":{"id":1,"name":"Parkering","icon":"\/gfx\/icons\/parkinggarage.png"}},{"id":59,"name":"Nordhemsgatan","latitude":57.6981,"longitude":11.9497,"description":null,"website":null,"image":null,"pointOfInterestType_id":1,"user_id":1,"created_at":"2016-09-19 20:59:32","updated_at":"2016-09-19 20:59:32","type":{"id":1,"name":"Parkering","icon":"\/gfx\/icons\/parkinggarage.png"}},{"id":60,"name":"Malmstensgatan","latitude":57.6938,"longitude":11.9679,"description":null,"website":null,"image":null,"pointOfInterestType_id":1,"user_id":1,"created_at":"2016-09-19 21:04:20","updated_at":"2016-09-19 21:04:20","type":{"id":1,"name":"Parkering","icon":"\/gfx\/icons\/parkinggarage.png"}},{"id":61,"name":"Maskingatan","latitude":57.7014,"longitude":11.9141,"description":null,"website":null,"image":null,"pointOfInterestType_id":1,"user_id":1,"created_at":"2016-09-19 21:09:35","updated_at":"2016-09-19 21:09:35","type":{"id":1,"name":"Parkering","icon":"\/gfx\/icons\/parkinggarage.png"}},{"id":62,"name":"Linn\u00e9gatan 57","latitude":57.6923,"longitude":11.9524,"description":null,"website":null,"image":null,"pointOfInterestType_id":1,"user_id":1,"created_at":"2016-09-19 21:12:19","updated_at":"2016-09-19 21:12:19","type":{"id":1,"name":"Parkering","icon":"\/gfx\/icons\/parkinggarage.png"}},{"id":63,"name":"Linn\u00e9gatan 33","latitude":57.6952,"longitude":11.9517,"description":null,"website":null,"image":null,"pointOfInterestType_id":1,"user_id":1,"created_at":"2016-09-19 21:13:19","updated_at":"2016-09-19 21:13:19","type":{"id":1,"name":"Parkering","icon":"\/gfx\/icons\/parkinggarage.png"}},{"id":64,"name":"Lillebyv\u00e4gen","latitude":57.7441,"longitude":11.7577,"description":null,"website":null,"image":null,"pointOfInterestType_id":1,"user_id":1,"created_at":"2016-09-19 21:14:32","updated_at":"2016-09-19 21:14:32","type":{"id":1,"name":"Parkering","icon":"\/gfx\/icons\/parkinggarage.png"}},{"id":65,"name":"Lillebybadet","latitude":57.7422,"longitude":11.7363,"description":null,"website":null,"image":null,"pointOfInterestType_id":1,"user_id":1,"created_at":"2016-09-19 21:16:18","updated_at":"2016-09-19 21:16:18","type":{"id":1,"name":"Parkering","icon":"\/gfx\/icons\/parkinggarage.png"}},{"id":66,"name":"Lilla stampgatan","latitude":57.7077,"longitude":11.9862,"description":null,"website":null,"image":null,"pointOfInterestType_id":1,"user_id":1,"created_at":"2016-09-19 21:18:12","updated_at":"2016-09-19 21:18:12","type":{"id":1,"name":"Parkering","icon":"\/gfx\/icons\/parkinggarage.png"}},{"id":67,"name":"Lilla bommen","latitude":57.7135,"longitude":11.9678,"description":null,"website":null,"image":null,"pointOfInterestType_id":1,"user_id":1,"created_at":"2016-09-19 21:21:48","updated_at":"2016-09-19 21:21:48","type":{"id":1,"name":"Parkering","icon":"\/gfx\/icons\/parkinggarage.png"}},{"id":68,"name":"Lagerstr\u00f6msplatsen","latitude":57.7119,"longitude":11.9987,"description":null,"website":null,"image":null,"pointOfInterestType_id":1,"user_id":1,"created_at":"2016-09-19 21:23:07","updated_at":"2016-09-19 21:23:07","type":{"id":1,"name":"Parkering","icon":"\/gfx\/icons\/parkinggarage.png"}},{"id":69,"name":"Landsv\u00e4gsgatan","latitude":57.6965,"longitude":11.9519,"description":null,"website":null,"image":null,"pointOfInterestType_id":1,"user_id":1,"created_at":"2016-09-19 21:24:35","updated_at":"2016-09-19 21:24:35","type":{"id":1,"name":"Parkering","icon":"\/gfx\/icons\/parkinggarage.png"}},{"id":70,"name":"Kusttorget","latitude":57.6942,"longitude":11.919,"description":null,"website":null,"image":null,"pointOfInterestType_id":1,"user_id":1,"created_at":"2016-09-19 21:26:48","updated_at":"2016-09-19 21:26:48","type":{"id":1,"name":"Parkering","icon":"\/gfx\/icons\/parkinggarage.png"}},{"id":71,"name":"Kastellgatan","latitude":57.6932,"longitude":11.9557,"description":null,"website":null,"image":null,"pointOfInterestType_id":1,"user_id":1,"created_at":"2016-09-19 21:30:27","updated_at":"2016-09-19 21:30:27","type":{"id":1,"name":"Parkering","icon":"\/gfx\/icons\/parkinggarage.png"}},{"id":72,"name":"Kapellgatan","latitude":57.6941,"longitude":11.9725,"description":null,"website":null,"image":null,"pointOfInterestType_id":1,"user_id":1,"created_at":"2016-09-19 21:32:33","updated_at":"2016-09-19 21:32:33","type":{"id":1,"name":"Parkering","icon":"\/gfx\/icons\/parkinggarage.png"}},{"id":73,"name":"Karl Gustavsgatan","latitude":57.6989,"longitude":11.9669,"description":null,"website":null,"image":null,"pointOfInterestType_id":1,"user_id":1,"created_at":"2016-09-19 21:34:11","updated_at":"2016-09-19 21:34:11","type":{"id":1,"name":"Parkering","icon":"\/gfx\/icons\/parkinggarage.png"}},{"id":74,"name":"Kanaltorgsgatan","latitude":57.7102,"longitude":11.9686,"description":null,"website":null,"image":null,"pointOfInterestType_id":1,"user_id":1,"created_at":"2016-09-19 21:35:51","updated_at":"2016-09-19 21:35:51","type":{"id":1,"name":"Parkering","icon":"\/gfx\/icons\/parkinggarage.png"}},{"id":75,"name":"J\u00e4rntorget","latitude":57.6996,"longitude":11.9524,"description":null,"website":null,"image":null,"pointOfInterestType_id":1,"user_id":1,"created_at":"2016-09-19 21:36:57","updated_at":"2016-09-19 21:36:57","type":{"id":1,"name":"Parkering","icon":"\/gfx\/icons\/parkinggarage.png"}},{"id":76,"name":"Haga \u00d6stergata","latitude":57.6995,"longitude":11.9536,"description":null,"website":null,"image":null,"pointOfInterestType_id":1,"user_id":1,"created_at":"2016-09-19 21:41:18","updated_at":"2016-09-19 21:41:18","type":{"id":1,"name":"Parkering","icon":"\/gfx\/icons\/parkinggarage.png"}},{"id":77,"name":"Haga Kyrkgata","latitude":57.6992,"longitude":11.9633,"description":null,"website":null,"image":null,"pointOfInterestType_id":1,"user_id":1,"created_at":"2016-09-19 21:45:05","updated_at":"2016-09-19 21:45:05","type":{"id":1,"name":"Parkering","icon":"\/gfx\/icons\/parkinggarage.png"}},{"id":78,"name":"Hylten\u00e4s kulle","latitude":57.417,"longitude":12.6273,"description":null,"website":null,"image":null,"pointOfInterestType_id":8,"user_id":1,"created_at":"2018-02-10 13:31:52","updated_at":"2018-02-10 13:31:52","type":{"id":8,"name":"Sev\u00e4rdhet","icon":"\/gfx\/icons\/sight-2.png"}},{"id":79,"name":"Grindmossens Kaf\u00e9 och Konferens","latitude":57.4772,"longitude":12.4229,"description":null,"website":null,"image":null,"pointOfInterestType_id":2,"user_id":1,"created_at":"2018-02-10 13:32:27","updated_at":"2018-02-10 13:32:27","type":{"id":2,"name":"Caf\u00e9","icon":"\/gfx\/icons\/coffee.png"}},{"id":80,"name":"Kalmar slott","latitude":56.6581,"longitude":16.355,"description":null,"website":null,"image":null,"pointOfInterestType_id":8,"user_id":1,"created_at":"2018-02-10 14:44:12","updated_at":"2018-02-10 14:44:12","type":{"id":8,"name":"Sev\u00e4rdhet","icon":"\/gfx\/icons\/sight-2.png"}}]